{"class":"VERSION","release":"3.22","rev":"3.22","proto_major":3,"proto_minor":14}
{"class":"DEVICES","devices":[{"class":"DEVICE","path":"/dev/pts/5","activated":"2025-12-04T16:56:13.766Z","native":0,"bps":4800,"parity":"N","stopbits":1,"cycle":1.00},{"class":"DEVICE","path":"/dev/pts/6","activated":"2025-12-04T16:56:14.766Z","native":0,"bps":4800,"parity":"N","stopbits":1,"cycle":1.00}]}
{"class":"WATCH","enable":true,"json":true,"nmea":false,"raw":0,"scaled":false,"timing":false,"split24":false,"pps":false}
{"class":"DEVICE","path":"/dev/pts/5","driver":"NMEA0183","activated":"2025-12-04T16:56:15.253Z","native":0,"bps":4800,"parity":"N","stopbits":1,"cycle":1.00}
{"class":"DEVICE","path":"/dev/pts/6","driver":"NMEA0183","activated":"2025-12-04T16:56:16.253Z","native":0,"bps":4800,"parity":"N","stopbits":1,"cycle":1.00}
{"class":"TPV","device":"/dev/pts/5","mode":3,"time":"2025-12-01T12:37:05.618Z","ept":0.005,"lat":41.828250000,"lon":12.268816667,"epv":23.000,"track":354.8000,"magtrack":357.9971,"magvar":3.2,"speed":500.040,"geoidSep":44.295,"eph":19.000,"sep":19.000,"epx":13.023,"epy":37.318,"epv":20.700}
{"class":"TPV","device":"/dev/pts/6","mode":3,"time":"2025-12-01T12:37:05.618Z","lat":41.846166667,"lon":12.266616667,"altHAE":0.0000,"altMSL":0.0000,"alt":0.0000,"epv":23.000,"magvar":3.2,"geoidSep":0.000,"eph":19.000,"sep":19.000,"epx":43.023,"epy":47.318,"epv":40.700}

{"class":"VERSION","release":"3.22","rev":"3.22","proto_major":3,"proto_minor":14}
{"class":"DEVICES","devices":[{"class":"DEVICE","path":"/dev/pts/5","activated":"2025-12-04T16:56:13.766Z","native":0,"bps":4800,"parity":"N","stopbits":1,"cycle":1.00},{"class":"DEVICE","path":"/dev/pts/6","activated":"2025-12-04T16:56:14.766Z","native":0,"bps":4800,"parity":"N","stopbits":1,"cycle":1.00}]}
{"class":"WATCH","enable":true,"json":true,"nmea":false,"raw":0,"scaled":false,"timing":false,"split24":false,"pps":false}
{"class":"DEVICE","path":"/dev/pts/5","driver":"NMEA0183","activated":"2025-12-04T16:56:15.253Z","native":0,"bps":4800,"parity":"N","stopbits":1,"cycle":1.00}
{"class":"TPV","device":"/dev/pts/5","mode":3,"epv":23.000,"eph":19.000,"sep":19.000}
{"class":"DEVICE","path":"/dev/pts/6","driver":"NMEA0183","activated":"2025-12-04T16:56:16.253Z","native":0,"bps":4800,"parity":"N","stopbits":1,"cycle":1.00}
{"class":"TPV","device":"/dev/pts/6","mode":3,"epv":23.000,"eph":19.000,"sep":19.000}
{"class":"TPV","device":"/dev/pts/5","mode":3,"time":"2025-12-01T12:37:05.618Z","ept":0.005,"lat":41.828250000,"lon":12.268816667,"epv":23.000,"track":354.8000,"magtrack":357.9971,"magvar":3.2,"speed":500.040,"geoidSep":44.295,"eph":19.000,"sep":19.000}
{"class":"TPV","device":"/dev/pts/6","mode":3,"time":"2025-12-01T12:37:05.618Z","ept":0.005,"lat":41.828250000,"lon":12.268816667,"epv":23.000,"track":354.8000,"magtrack":357.9971,"magvar":3.2,"speed":500.040,"geoidSep":44.295,"eph":19.000,"sep":19.000}
{"class":"TPV","device":"/dev/pts/5","mode":1,"time":"2025-12-01T12:37:05.618Z","ept":0.005}
{"class":"TPV","device":"/dev/pts/5","mode":1}
{"class":"TPV","device":"/dev/pts/6","mode":3,"time":"2025-12-01T12:37:06.618Z","ept":0.005,"lat":41.832733333,"lon":12.268266667,"altHAE":0.0000,"altMSL":0.0000,"alt":0.0000,"epv":23.000,"track":354.8000,"magtrack":357.9973,"magvar":3.2,"speed":500.040,"epc":46.00,"geoidSep":0.000,"eph":19.000,"sep":19.000}
{"class":"TPV","device":"/dev/pts/5","mode":3,"time":"2025-12-01T12:37:07.618Z","ept":0.005,"lat":41.837216667,"lon":12.267716667,"altHAE":0.0000,"altMSL":0.0000,"alt":0.0000,"epv":23.000,"track":354.8000,"magtrack":357.9974,"magvar":3.2,"speed":500.040,"geoidSep":0.000,"eph":19.000,"sep":19.000}
{"class":"TPV","device":"/dev/pts/6","mode":3,"time":"2025-12-01T12:37:07.618Z","ept":0.005,"lat":41.837216667,"lon":12.267716667,"altHAE":0.0000,"altMSL":0.0000,"alt":0.0000,"epv":23.000,"track":354.8000,"magtrack":357.9974,"magvar":3.2,"speed":500.040,"climb":0.000,"epc":46.00,"geoidSep":0.000,"eph":19.000,"sep":19.000}
{"class":"TPV","device":"/dev/pts/6","mode":1,"time":"2025-12-01T12:37:07.618Z","ept":0.005}
{"class":"TPV","device":"/dev/pts/6","mode":1,"time":"2025-12-01T12:37:07.618Z","ept":0.005}
{"class":"TPV","device":"/dev/pts/5","mode":3,"time":"2025-12-01T12:37:08.618Z","ept":0.005,"lat":41.841700000,"lon":12.267166667,"altHAE":0.0000,"altMSL":0.0000,"alt":0.0000,"epv":23.000,"track":354.8000,"magtrack":357.9975,"magvar":3.2,"speed":500.040,"climb":0.000,"epc":46.00,"geoidSep":0.000,"eph":19.000,"sep":19.000}
{"class":"TPV","device":"/dev/pts/6","mode":1}
{"class":"TPV","device":"/dev/pts/6","mode":3,"lat":41.846166667,"lon":12.266616667,"altHAE":0.0000,"altMSL":0.0000,"alt":0.0000,"epv":23.000,"magvar":3.2,"geoidSep":0.000,"eph":19.000,"sep":19.000}
{"class":"TPV","device":"/dev/pts/6","mode":3,"lat":41.846166667,"lon":12.266616667,"altHAE":0.0000,"altMSL":0.0000,"alt":0.0000,"epv":23.000,"magvar":3.2,"geoidSep":0.000,"eph":19.000,"sep":19.000}
{"class":"TPV","device":"/dev/pts/5","mode":3,"time":"2025-12-01T12:37:09.618Z","ept":0.005,"lat":41.846166667,"lon":12.266616667,"altHAE":0.0000,"altMSL":0.0000,"alt":0.0000,"epv":23.000,"track":354.8000,"magtrack":357.9976,"magvar":3.2,"speed":500.040,"climb":0.000,"epc":46.00,"geoidSep":0.000,"eph":19.000,"sep":19.000}
{"class":"TPV","device":"/dev/pts/6","mode":3,"time":"2025-12-01T12:37:09.618Z","ept":0.005,"lat":41.846166667,"lon":12.266616667,"altHAE":0.0000,"altMSL":0.0000,"alt":0.0000,"epv":23.000,"track":354.8000,"magtrack":357.9976,"magvar":3.2,"speed":500.040,"geoidSep":0.000,"eph":19.000,"sep":19.000}
{"class":"TPV","device":"/dev/pts/5","mode":1,"time":"2025-12-01T12:37:09.618Z","ept":0.005}
{"class":"TPV","device":"/dev/pts/6","mode":1,"time":"2025-12-01T12:37:09.618Z","ept":0.005}
{"class":"TPV","device":"/dev/pts/5","mode":1,"time":"2025-12-01T12:37:09.618Z","ept":0.005}
{"class":"TPV","device":"/dev/pts/6","mode":1,"time":"2025-12-01T12:37:09.618Z","ept":0.005}
{"class":"TPV","device":"/dev/pts/5","mode":1}
{"class":"TPV","device":"/dev/pts/6","mode":1}
{"class":"TPV","device":"/dev/pts/5","mode":3,"lat":41.850650000,"lon":12.266066667,"altHAE":0.0000,"altMSL":0.0000,"alt":0.0000,"epv":23.000,"magvar":3.2,"geoidSep":0.000,"eph":19.000,"sep":19.000}
{"class":"TPV","device":"/dev/pts/6","mode":3,"lat":41.850650000,"lon":12.266066667,"altHAE":0.0000,"altMSL":0.0000,"alt":0.0000,"epv":23.000,"magvar":3.2,"geoidSep":0.000,"eph":19.000,"sep":19.000}
{"class":"TPV","device":"/dev/pts/5","mode":3,"lat":41.850650000,"lon":12.266066667,"altHAE":0.0000,"altMSL":0.0000,"alt":0.0000,"epv":23.000,"magvar":3.2,"geoidSep":0.000,"eph":19.000,"sep":19.000}
{"class":"TPV","device":"/dev/pts/6","mode":3,"lat":41.850650000,"lon":12.266066667,"altHAE":0.0000,"altMSL":0.0000,"alt":0.0000,"epv":23.000,"magvar":3.2,"geoidSep":0.000,"eph":19.000,"sep":19.000}
{"class":"TPV","device":"/dev/pts/5","mode":3,"time":"2025-12-01T12:37:10.618Z","ept":0.005,"lat":41.850650000,"lon":12.266066667,"altHAE":0.0000,"altMSL":0.0000,"alt":0.0000,"epv":23.000,"track":354.8000,"magtrack":357.9978,"magvar":3.2,"speed":500.040,"geoidSep":0.000,"eph":19.000,"sep":19.000}
{"class":"TPV","device":"/dev/pts/6","mode":3,"time":"2025-12-01T12:37:10.618Z","ept":0.005,"lat":41.850650000,"lon":12.266066667,"altHAE":0.0000,"altMSL":0.0000,"alt":0.0000,"epv":23.000,"track":354.8000,"magtrack":357.9978,"magvar":3.2,"speed":500.040,"geoidSep":0.000,"eph":19.000,"sep":19.000}
{"class":"DEVICE","path":"/dev/pts/5","activated":0}
{"class":"DEVICE","path":"/dev/pts/6","activated":0}